2021:01:22:10:02:21.822000,1611306141.822,$GPGGA,090221.00,6339.630208,N,01047.323215,E,2,12,0.8,12.49,M,40.33,M,7.0,0907*77
2021:01:22:10:02:22.822000,1611306142.822,$GPGGA,090222.00,6339.632048,N,01047.328482,E,2,12,0.8,12.49,M,40.33,M,8.0,0907*7C
2021:01:22:10:02:23.822000,1611306143.822,$GPGGA,090223.00,6339.633892,N,01047.333798,E,2,12,0.8,12.52,M,40.33,M,9.0,0907*7A
2021:01:22:10:02:24.822000,1611306144.822,$GPGGA,090224.00,6339.635762,N,01047.339090,E,2,12,0.8,12.49,M,40.33,M,10.0,0907*4C
2021:01:22:10:02:25.822000,1611306145.822,$GPGGA,090225.00,6339.637584,N,01047.344416,E,2,12,0.8,12.50,M,40.33,M,11.0,0907*4C
2021:01:22:10:02:26.822000,1611306146.822,$GPGGA,090226.00,6339.639415,N,01047.349727,E,2,12,0.8,12.53,M,40.33,M,12.0,0907*44
2021:01:22:10:02:27.822000,1611306147.822,$GPGGA,090227.00,6339.641252,N,01047.355050,E,2,12,0.8,12.49,M,40.33,M,8.0,0907*75
2021:01:22:10:02:28.822000,1611306148.822,$GPGGA,090228.00,6339.643156,N,01047.360253,E,2,12,0.8,12.50,M,40.33,M,9.0,0907*71
2021:01:22:10:02:29.822000,1611306149.822,$GPGGA,090229.00,6339.644995,N,01047.365471,E,2,12,0.8,12.51,M,40.33,M,5.0,0907*7E
2021:01:22:10:02:31.822000,1611306151.822,$GPGGA,090231.00,6339.648822,N,01047.375917,E,2,12,0.8,12.50,M,40.33,M,7.0,0907*79
2021:01:22:10:02:32.822000,1611306152.822,$GPGGA,090232.00,6339.650648,N,01047.381225,E,2,12,0.8,12.49,M,40.33,M,8.0,0907*77
2021:01:22:10:02:33.822000,1611306153.822,$GPGGA,090233.00,6339.652511,N,01047.386482,E,2,12,0.8,12.52,M,40.33,M,9.0,0907*7C
2021:01:22:10:02:35.823000,1611306155.823,$GPGGA,090235.00,6339.656200,N,01047.397068,E,2,12,0.8,12.52,M,40.33,M,11.0,0907*40
2021:01:22:10:02:36.823000,1611306156.823,$GPGGA,090236.00,6339.658059,N,01047.402343,E,2,12,0.8,12.53,M,40.33,M,12.0,0907*40
2021:01:22:10:02:37.823000,1611306157.823,$GPGGA,090237.00,6339.659876,N,01047.407655,E,2,12,0.8,12.51,M,40.33,M,7.0,0907*74
2021:01:22:10:02:39.823000,1611306159.823,$GPGGA,090239.00,6339.663515,N,01047.418202,E,2,12,0.8,12.52,M,40.33,M,4.0,0907*73
2021:01:22:10:02:40.823000,1611306160.823,$GPGGA,090240.00,6339.665332,N,01047.423576,E,2,12,0.8,12.48,M,40.33,M,5.0,0907*7E
2021:01:22:10:02:41.823000,1611306161.823,$GPGGA,090241.00,6339.667163,N,01047.428844,E,2,12,0.8,12.52,M,40.32,M,6.0,0907*75
2021:01:22:10:02:42.823000,1611306162.823,$GPGGA,090242.00,6339.668968,N,01047.434206,E,2,12,0.8,12.48,M,40.32,M,7.0,0907*71
2021:01:22:10:02:43.823000,1611306163.823,$GPGGA,090243.00,6339.670829,N,01047.439461,E,2,12,0.8,12.51,M,40.32,M,8.0,0907*70
2021:01:22:10:02:44.822000,1611306164.822,$GPGGA,090244.00,6339.672692,N,01047.444682,E,2,12,0.8,12.52,M,40.32,M,9.0,0907*7C
2021:01:22:10:02:45.822000,1611306165.822,$GPGGA,090245.00,6339.674535,N,01047.449982,E,2,12,0.8,12.50,M,40.32,M,10.0,0907*4D
2021:01:22:10:02:46.822000,1611306166.822,$GPGGA,090246.00,6339.676419,N,01047.455268,E,2,12,0.8,12.49,M,40.32,M,11.0,0907*48
2021:01:22:10:02:47.822000,1611306167.822,$GPGGA,090247.00,6339.678212,N,01047.460583,E,2,12,0.8,12.48,M,40.32,M,7.0,0907*78
2021:01:22:10:02:48.822000,1611306168.822,$GPGGA,090248.00,6339.680033,N,01047.465906,E,2,12,0.8,12.46,M,40.32,M,8.0,0907*74
2021:01:22:10:02:49.823000,1611306169.823,$GPGGA,090249.00,6339.681954,N,01047.471048,E,2,12,0.8,12.49,M,40.32,M,9.0,0907*74
2021:01:22:10:02:50.823000,1611306170.823,$GPGGA,090250.00,6339.683823,N,01047.476305,E,2,12,0.8,12.46,M,40.32,M,5.0,0907*71
2021:01:22:10:02:51.823000,1611306171.823,$GPGGA,090251.00,6339.685722,N,01047.481609,E,2,12,0.8,12.42,M,40.32,M,6.0,0907*7E
2021:01:22:10:02:52.823000,1611306172.823,$GPGGA,090252.00,6339.687636,N,01047.486763,E,2,12,0.8,12.47,M,40.32,M,7.0,0907*75
2021:01:22:10:02:53.823000,1611306173.823,$GPGGA,090253.00,6339.689443,N,01047.492035,E,2,12,0.8,12.49,M,40.32,M,8.0,0907*7A
2021:01:22:10:02:54.823000,1611306174.823,$GPGGA,090254.00,6339.691301,N,01047.497393,E,2,12,0.8,12.45,M,40.32,M,9.0,0907*72
2021:01:22:10:02:55.823000,1611306175.823,$GPGGA,090255.00,6339.693180,N,01047.502659,E,2,12,0.8,12.46,M,40.32,M,10.0,0907*4F
2021:01:22:10:02:56.823000,1611306176.823,$GPGGA,090256.00,6339.694967,N,01047.508004,E,2,12,0.8,12.47,M,40.32,M,11.0,0907*4E
2021:01:22:10:02:57.823000,1611306177.823,$GPGGA,090257.00,6339.696829,N,01047.513331,E,2,12,0.8,12.47,M,40.32,M,6.0,0907*7F
2021:01:22:10:02:58.823000,1611306178.823,$GPGGA,090258.00,6339.698671,N,01047.518694,E,2,12,0.8,12.46,M,40.32,M,7.0,0907*7C
2021:01:22:10:03:00.823000,1611306180.823,$GPGGA,090300.00,6339.702423,N,01047.529191,E,2,12,0.8,12.47,M,40.32,M,9.0,0907*78
2021:01:22:10:03:01.823000,1611306181.823,$GPGGA,090301.00,6339.704295,N,01047.534465,E,2,12,0.8,12.49,M,40.32,M,10.0,0907*40
2021:01:22:10:03:02.823000,1611306182.823,$GPGGA,090302.00,6339.706165,N,01047.539765,E,2,12,0.8,12.48,M,40.32,M,11.0,0907*43
2021:01:22:10:03:03.823000,1611306183.823,$GPGGA,090303.00,6339.708015,N,01047.545064,E,2,12,0.8,12.47,M,40.32,M,12.0,0907*4B
2021:01:22:10:03:05.824000,1611306185.824,$GPGGA,090305.00,6339.711637,N,01047.555767,E,2,12,0.8,12.52,M,40.32,M,9.0,0907*78
2021:01:22:10:03:06.824000,1611306186.824,$GPGGA,090306.00,6339.713512,N,01047.561054,E,2,12,0.8,12.52,M,40.32,M,5.0,0907*71
2021:01:22:10:03:07.824000,1611306187.824,$GPGGA,090307.00,6339.715370,N,01047.566342,E,2,12,0.8,12.49,M,40.32,M,6.0,0907*7E
2021:01:22:10:03:09.824000,1611306189.824,$GPGGA,090309.00,6339.719116,N,01047.576837,E,2,12,0.8,12.50,M,40.32,M,8.0,0907*70
2021:01:22:10:03:10.824000,1611306190.824,$GPGGA,090310.00,6339.720977,N,01047.582169,E,2,12,0.8,12.50,M,40.32,M,9.0,0907*75
2021:01:22:10:03:11.824000,1611306191.824,$GPGGA,090311.00,6339.722853,N,01047.587412,E,2,12,0.8,12.52,M,40.32,M,10.0,0907*47
2021:01:22:10:03:12.824000,1611306192.824,$GPGGA,090312.00,6339.724649,N,01047.592786,E,2,12,0.8,12.51,M,40.32,M,11.0,0907*4F
2021:01:22:10:03:13.823000,1611306193.823,$GPGGA,090313.00,6339.726488,N,01047.598144,E,2,12,0.8,12.52,M,40.32,M,12.0,0907*41
2021:01:22:10:03:14.823000,1611306194.823,$GPGGA,090314.00,6339.728372,N,01047.603451,E,2,12,0.8,12.48,M,40.32,M,8.0,0907*7A
2021:01:22:10:03:15.823000,1611306195.823,$GPGGA,090315.00,6339.730237,N,01047.608673,E,2,12,0.8,12.49,M,40.32,M,9.0,0907*7B
2021:01:22:10:03:16.823000,1611306196.823,$GPGGA,090316.00,6339.732102,N,01047.613940,E,2,12,0.8,12.51,M,40.32,M,5.0,0907*7F
2021:01:22:10:03:17.823000,1611306197.823,$GPGGA,090317.00,6339.734051,N,01047.619183,E,2,12,0.8,12.48,M,40.32,M,6.0,0907*79
2021:01:22:10:03:18.823000,1611306198.823,$GPGGA,090318.00,6339.736015,N,01047.624298,E,2,12,0.8,12.46,M,40.32,M,7.0,0907*7C
2021:01:22:10:03:19.824000,1611306199.824,$GPGGA,090319.00,6339.737858,N,01047.629524,E,2,12,0.8,12.49,M,40.32,M,8.0,0907*70
2021:01:22:10:03:21.824000,1611306201.824,$GPGGA,090321.00,6339.741644,N,01047.640080,E,2,12,0.8,12.46,M,40.32,M,10.0,0907*4B
2021:01:22:10:03:22.824000,1611306202.824,$GPGGA,090322.00,6339.743544,N,01047.645283,E,2,12,0.8,12.48,M,40.32,M,11.0,0907*42
2021:01:22:10:03:23.824000,1611306203.824,$GPGGA,090323.00,6339.745422,N,01047.650555,E,2,12,0.8,12.51,M,40.32,M,12.0,0907*47
2021:01:22:10:03:25.824000,1611306205.824,$GPGGA,090325.00,6339.749183,N,01047.661105,E,2,12,0.8,12.50,M,40.32,M,9.0,0907*7B
2021:01:22:10:03:26.824000,1611306206.824,$GPGGA,090326.00,6339.751080,N,01047.666280,E,2,12,0.8,12.51,M,40.32,M,10.0,0907*43
2021:01:22:10:03:27.824000,1611306207.824,$GPGGA,090327.00,6339.752975,N,01047.671519,E,2,12,0.8,12.47,M,40.32,M,5.0,0907*70
2021:01:22:10:03:29.824000,1611306209.824,$GPGGA,090329.00,6339.756767,N,01047.681981,E,2,12,0.8,12.49,M,40.32,M,7.0,0907*79
2021:01:22:10:03:30.824000,1611306210.824,$GPGGA,090330.00,6339.758619,N,01047.687256,E,2,12,0.8,12.48,M,40.32,M,8.0,0907*7E
2021:01:22:10:03:31.824000,1611306211.824,$GPGGA,090331.00,6339.760535,N,01047.692493,E,2,12,0.8,12.45,M,40.32,M,9.0,0907*7E
2021:01:22:10:03:32.824000,1611306212.824,$GPGGA,090332.00,6339.762466,N,01047.697655,E,2,12,0.8,12.45,M,40.32,M,10.0,0907*4D
2021:01:22:10:03:34.825000,1611306214.825,$GPGGA,090334.00,6339.766273,N,01047.708156,E,2,12,0.8,12.48,M,40.32,M,7.0,0907*75
2021:01:22:10:03:35.825000,1611306215.825,$GPGGA,090335.00,6339.768187,N,01047.713439,E,2,12,0.8,12.45,M,40.32,M,8.0,0907*76
2021:01:22:10:03:36.825000,1611306216.825,$GPGGA,090336.00,6339.770103,N,01047.718646,E,2,12,0.8,12.49,M,40.32,M,9.0,0907*7C
2021:01:22:10:03:37.825000,1611306217.825,$GPGGA,090337.00,6339.771984,N,01047.723903,E,2,12,0.8,12.49,M,40.32,M,10.0,0907*45
2021:01:22:10:03:38.825000,1611306218.825,$GPGGA,090338.00,6339.773857,N,01047.729258,E,2,12,0.8,12.46,M,40.32,M,11.0,0907*46
2021:01:22:10:03:39.825000,1611306219.825,$GPGGA,090339.00,6339.775778,N,01047.734514,E,2,12,0.8,12.45,M,40.32,M,12.0,0907*40
2021:01:22:10:03:41.825000,1611306221.825,$GPGGA,090341.00,6339.779544,N,01047.745006,E,2,12,0.8,12.48,M,40.32,M,9.0,0907*79
2021:01:22:10:03:42.824000,1611306222.824,$GPGGA,090342.00,6339.781429,N,01047.750293,E,2,12,0.8,12.47,M,40.32,M,10.0,0907*4A
2021:01:22:10:03:43.824000,1611306223.824,$GPGGA,090343.00,6339.783258,N,01047.755617,E,2,12,0.8,12.47,M,40.32,M,6.0,0907*73
2021:01:22:10:03:44.824000,1611306224.824,$GPGGA,090344.00,6339.785082,N,01047.760999,E,2,12,0.8,12.48,M,40.32,M,7.0,0907*76
2021:01:22:10:03:46.824000,1611306226.824,$GPGGA,090346.00,6339.788718,N,01047.771779,E,2,12,0.8,12.49,M,40.32,M,9.0,0907*72
2021:01:22:10:03:47.824000,1611306227.824,$GPGGA,090347.00,6339.790544,N,01047.777127,E,2,12,0.8,12.51,M,40.32,M,10.0,0907*4B
2021:01:22:10:03:48.824000,1611306228.824,$GPGGA,090348.00,6339.792327,N,01047.782542,E,2,12,0.8,12.48,M,40.31,M,11.0,0907*42
2021:01:22:10:03:50.825000,1611306230.825,$GPGGA,090350.00,6339.796044,N,01047.793209,E,2,12,0.8,12.50,M,40.31,M,13.0,0907*4A
2021:01:22:10:03:51.825000,1611306231.825,$GPGGA,090351.00,6339.797879,N,01047.798482,E,2,12,0.8,12.49,M,40.31,M,8.0,0907*70
2021:01:22:10:03:52.825000,1611306232.825,$GPGGA,090352.00,6339.799717,N,01047.803850,E,2,12,0.8,12.50,M,40.31,M,9.0,0907*7D
2021:01:22:10:03:54.825000,1611306234.825,$GPGGA,090354.00,6339.803395,N,01047.814542,E,2,12,0.8,12.47,M,40.31,M,6.0,0907*78
2021:01:22:10:03:55.825000,1611306235.825,$GPGGA,090355.00,6339.805193,N,01047.819914,E,2,12,0.8,12.54,M,40.31,M,7.0,0907*7A
2021:01:22:10:03:56.825000,1611306236.825,$GPGGA,090356.00,6339.806994,N,01047.825283,E,2,12,0.8,12.55,M,40.31,M,8.0,0907*71
2021:01:22:10:03:57.825000,1611306237.825,$GPGGA,090357.00,6339.808886,N,01047.830625,E,2,12,0.8,12.50,M,40.31,M,4.0,0907*79
2021:01:22:10:03:58.825000,1611306238.825,$GPGGA,090358.00,6339.810802,N,01047.835872,E,2,12,0.8,12.47,M,40.31,M,5.0,0907*7D
2021:01:22:10:03:59.825000,1611306239.825,$GPGGA,090359.00,6339.812628,N,01047.841133,E,2,12,0.8,12.52,M,40.31,M,6.0,0907*70
2021:01:22:10:04:00.825000,1611306240.825,$GPGGA,090400.00,6339.814516,N,01047.846403,E,2,12,0.8,12.50,M,40.31,M,7.0,0907*71
2021:01:22:10:04:01.825000,1611306241.825,$GPGGA,090401.00,6339.816479,N,01047.851593,E,2,12,0.8,12.49,M,40.31,M,8.0,0907*73
2021:01:22:10:04:02.825000,1611306242.825,$GPGGA,090402.00,6339.818410,N,01047.856733,E,2,12,0.8,12.51,M,40.31,M,9.0,0907*76
2021:01:22:10:04:03.825000,1611306243.825,$GPGGA,090403.00,6339.820287,N,01047.862002,E,2,12,0.8,12.52,M,40.31,M,10.0,0907*4D
2021:01:22:10:04:04.826000,1611306244.826,$GPGGA,090404.00,6339.822197,N,01047.867250,E,2,12,0.8,12.50,M,40.31,M,11.0,0907*49
2021:01:22:10:04:06.826000,1611306246.826,$GPGGA,090406.00,6339.825953,N,01047.877729,E,2,12,0.8,12.51,M,40.31,M,7.0,0907*70
2021:01:22:10:04:07.826000,1611306247.826,$GPGGA,090407.00,6339.827854,N,01047.883030,E,2,12,0.8,12.47,M,40.31,M,8.0,0907*79
2021:01:22:10:04:08.826000,1611306248.826,$GPGGA,090408.00,6339.829756,N,01047.888230,E,2,12,0.8,12.51,M,40.31,M,9.0,0907*7A
2021:01:22:10:04:11.826000,1611306251.826,$GPGGA,090411.00,6339.835478,N,01047.903876,E,2,12,0.8,12.52,M,40.31,M,7.0,0907*77
2021:01:22:10:04:12.825000,1611306252.825,$GPGGA,090412.00,6339.837357,N,01047.909131,E,2,12,0.8,12.52,M,40.31,M,8.0,0907*73
2021:01:22:10:04:15.825000,1611306255.825,$GPGGA,090415.00,6339.842921,N,01047.925147,E,2,12,0.8,12.55,M,40.31,M,11.0,0907*4D
2021:01:22:10:04:16.825000,1611306256.825,$GPGGA,090416.00,6339.844794,N,01047.930532,E,2,12,0.8,12.50,M,40.31,M,12.0,0907*4C
2021:01:22:10:04:17.825000,1611306257.825,$GPGGA,090417.00,6339.846697,N,01047.935766,E,2,12,0.8,12.53,M,40.31,M,7.0,0907*7C
2021:01:22:10:04:19.826000,1611306259.826,$GPGGA,090419.00,6339.850376,N,01047.946468,E,2,12,0.8,12.53,M,40.31,M,9.0,0907*78
2021:01:22:10:04:20.826000,1611306260.826,$GPGGA,090420.00,6339.852218,N,01047.951836,E,2,12,0.8,12.52,M,40.31,M,5.0,0907*75
2021:01:22:10:04:21.826000,1611306261.826,$GPGGA,090421.00,6339.854064,N,01047.957155,E,2,12,0.8,12.56,M,40.31,M,6.0,0907*76
2021:01:22:10:04:22.826000,1611306262.826,$GPGGA,090422.00,6339.855913,N,01047.962525,E,2,12,0.8,12.56,M,40.31,M,7.0,0907*79
2021:01:22:10:04:23.826000,1611306263.826,$GPGGA,090423.00,6339.857819,N,01047.967879,E,2,12,0.8,12.53,M,40.31,M,8.0,0907*7A
2021:01:22:10:04:24.826000,1611306264.826,$GPGGA,090424.00,6339.859710,N,01047.973187,E,2,12,0.8,12.51,M,40.31,M,9.0,0907*7B
2021:01:22:10:04:25.826000,1611306265.826,$GPGGA,090425.00,6339.861577,N,01047.978456,E,2,12,0.8,12.54,M,40.31,M,10.0,0907*4D
2021:01:22:10:04:26.826000,1611306266.826,$GPGGA,090426.00,6339.863495,N,01047.983707,E,2,12,0.8,12.54,M,40.31,M,11.0,0907*43
2021:01:22:10:04:27.826000,1611306267.826,$GPGGA,090427.00,6339.865504,N,01047.988902,E,2,12,0.8,12.51,M,40.31,M,12.0,0907*4B
2021:01:22:10:04:28.826000,1611306268.826,$GPGGA,090428.00,6339.867435,N,01047.994126,E,2,12,0.8,12.51,M,40.31,M,8.0,0907*7D
2021:01:22:10:04:29.826000,1611306269.826,$GPGGA,090429.00,6339.869302,N,01047.999459,E,2,12,0.8,12.51,M,40.31,M,9.0,0907*70
2021:01:22:10:04:31.826000,1611306271.826,$GPGGA,090431.00,6339.873070,N,01048.010146,E,2,12,0.8,12.51,M,40.31,M,6.0,0907*77
2021:01:22:10:04:32.826000,1611306272.826,$GPGGA,090432.00,6339.874961,N,01048.015437,E,2,12,0.8,12.49,M,40.31,M,7.0,0907*74
2021:01:22:10:04:33.826000,1611306273.826,$GPGGA,090433.00,6339.876872,N,01048.020717,E,2,12,0.8,12.48,M,40.31,M,8.0,0907*7D
2021:01:22:10:04:36.827000,1611306276.827,$GPGGA,090436.00,6339.882610,N,01048.036489,E,2,12,0.8,12.51,M,40.31,M,11.0,0907*4A
2021:01:22:10:04:37.827000,1611306277.827,$GPGGA,090437.00,6339.884511,N,01048.041792,E,2,12,0.8,12.50,M,40.31,M,12.0,0907*44
2021:01:22:10:04:40.827000,1611306280.827,$GPGGA,090440.00,6339.890049,N,01048.057840,E,2,12,0.8,12.53,M,40.31,M,10.0,0907*4F
2021:01:22:10:04:41.827000,1611306281.827,$GPGGA,090441.00,6339.891966,N,01048.063122,E,2,12,0.8,12.49,M,40.31,M,11.0,0907*4B
2021:01:22:10:04:42.826000,1611306282.826,$GPGGA,090442.00,6339.893849,N,01048.068426,E,2,12,0.8,12.48,M,40.31,M,12.0,0907*4E
2021:01:22:10:04:44.826000,1611306284.826,$GPGGA,090444.00,6339.897615,N,01048.078997,E,2,12,0.8,12.52,M,40.31,M,8.0,0907*7D
2021:01:22:10:04:45.826000,1611306285.826,$GPGGA,090445.00,6339.899540,N,01048.084310,E,2,12,0.8,12.51,M,40.31,M,9.0,0907*75
2021:01:22:10:04:46.827000,1611306286.827,$GPGGA,090446.00,6339.901416,N,01048.089653,E,2,12,0.8,12.51,M,40.31,M,10.0,0907*43
2021:01:22:10:04:47.826000,1611306287.826,$GPGGA,090447.00,6339.903229,N,01048.095006,E,2,12,0.8,12.51,M,40.31,M,11.0,0907*40
2021:01:22:10:04:48.826000,1611306288.826,$GPGGA,090448.00,6339.905079,N,01048.100414,E,2,12,0.8,12.51,M,40.31,M,7.0,0907*73
2021:01:22:10:04:49.827000,1611306289.827,$GPGGA,090449.00,6339.906945,N,01048.105786,E,2,12,0.8,12.53,M,40.31,M,8.0,0907*77
2021:01:22:10:04:50.827000,1611306290.827,$GPGGA,090450.00,6339.908855,N,01048.111069,E,2,12,0.8,12.52,M,40.31,M,9.0,0907*72
2021:01:22:10:04:51.827000,1611306291.827,$GPGGA,090451.00,6339.910687,N,01048.116460,E,2,12,0.8,12.48,M,40.31,M,10.0,0907*42
2021:01:22:10:04:52.827000,1611306292.827,$GPGGA,090452.00,6339.912497,N,01048.121907,E,2,12,0.8,12.53,M,40.31,M,11.0,0907*43
2021:01:22:10:04:53.827000,1611306293.827,$GPGGA,090453.00,6339.914318,N,01048.127349,E,2,12,0.8,12.52,M,40.31,M,12.0,0907*40
2021:01:22:10:04:54.827000,1611306294.827,$GPGGA,090454.00,6339.916206,N,01048.132693,E,2,12,0.8,12.48,M,40.31,M,8.0,0907*7D
2021:01:22:10:04:56.827000,1611306296.827,$GPGGA,090456.00,6339.919837,N,01048.143561,E,2,12,0.8,12.51,M,40.30,M,10.0,0907*40
2021:01:22:10:04:57.827000,1611306297.827,$GPGGA,090457.00,6339.921719,N,01048.148914,E,2,12,0.8,12.46,M,40.30,M,11.0,0907*4B
2021:01:22:10:04:58.827000,1611306298.827,$GPGGA,090458.00,6339.923610,N,01048.154220,E,2,12,0.8,12.50,M,40.30,M,6.0,0907*7E
2021:01:22:10:05:00.827000,1611306300.827,$GPGGA,090500.00,6339.927269,N,01048.165084,E,2,12,0.8,12.50,M,40.30,M,8.0,0907*7C
2021:01:22:10:05:01.827000,1611306301.827,$GPGGA,090501.00,6339.929098,N,01048.170552,E,2,12,0.8,12.49,M,40.30,M,9.0,0907*7C
2021:01:22:10:05:02.827000,1611306302.827,$GPGGA,090502.00,6339.930900,N,01048.175940,E,2,12,0.8,12.51,M,40.30,M,10.0,0907*44
2021:01:22:10:05:04.828000,1611306304.828,$GPGGA,090504.00,6339.934610,N,01048.186748,E,2,12,0.8,12.51,M,40.30,M,12.0,0907*40
2021:01:22:10:05:05.828000,1611306305.828,$GPGGA,090505.00,6339.936484,N,01048.192150,E,2,12,0.8,12.52,M,40.30,M,8.0,0907*7E
2021:01:22:10:05:06.828000,1611306306.828,$GPGGA,090506.00,6339.938335,N,01048.197520,E,2,12,0.8,12.55,M,40.30,M,9.0,0907*7E
2021:01:22:10:05:09.828000,1611306309.828,$GPGGA,090509.00,6339.943925,N,01048.213639,E,2,12,0.8,12.48,M,40.30,M,7.0,0907*70
2021:01:22:10:05:10.828000,1611306310.828,$GPGGA,090510.00,6339.945840,N,01048.218864,E,2,12,0.8,12.48,M,40.30,M,8.0,0907*7E
2021:01:22:10:05:11.827000,1611306311.827,$GPGGA,090511.00,6339.947731,N,01048.224098,E,2,12,0.8,12.53,M,40.30,M,9.0,0907*7B
2021:01:22:10:05:13.827000,1611306313.827,$GPGGA,090513.00,6339.951655,N,01048.234606,E,2,12,0.8,12.48,M,40.30,M,11.0,0907*4E
2021:01:22:10:05:14.827000,1611306314.827,$GPGGA,090514.00,6339.953520,N,01048.239944,E,2,12,0.8,12.51,M,40.30,M,12.0,0907*45
2021:01:22:10:05:15.827000,1611306315.827,$GPGGA,090515.00,6339.955391,N,01048.245262,E,2,12,0.8,12.50,M,40.30,M,7.0,0907*7F
2021:01:22:10:05:16.827000,1611306316.827,$GPGGA,090516.00,6339.957314,N,01048.250544,E,2,12,0.8,12.47,M,40.30,M,8.0,0907*7D
2021:01:22:10:05:17.827000,1611306317.827,$GPGGA,090517.00,6339.959213,N,01048.255829,E,2,12,0.8,12.51,M,40.30,M,9.0,0907*71
2021:01:22:10:05:18.827000,1611306318.827,$GPGGA,090518.00,6339.961126,N,01048.261144,E,2,12,0.8,12.51,M,40.30,M,10.0,0907*4D
2021:01:22:10:05:19.828000,1611306319.828,$GPGGA,090519.00,6339.963054,N,01048.266391,E,2,12,0.8,12.49,M,40.30,M,11.0,0907*4F
2021:01:22:10:05:21.828000,1611306321.828,$GPGGA,090521.00,6339.966845,N,01048.277026,E,2,12,0.8,12.54,M,40.30,M,8.0,0907*72
2021:01:22:10:05:22.828000,1611306322.828,$GPGGA,090522.00,6339.968809,N,01048.282267,E,2,12,0.8,12.53,M,40.30,M,9.0,0907*7C
2021:01:22:10:05:23.828000,1611306323.828,$GPGGA,090523.00,6339.970710,N,01048.287667,E,2,12,0.8,12.51,M,40.30,M,10.0,0907*48
2021:01:22:10:05:25.828000,1611306325.828,$GPGGA,090525.00,6339.974457,N,01048.298273,E,2,12,0.8,12.56,M,40.30,M,7.0,0907*74
2021:01:22:10:05:26.828000,1611306326.828,$GPGGA,090526.00,6339.976343,N,01048.303646,E,2,12,0.8,12.54,M,40.30,M,8.0,0907*7B
2021:01:22:10:05:27.828000,1611306327.828,$GPGGA,090527.00,6339.978262,N,01048.308967,E,2,12,0.8,12.51,M,40.30,M,9.0,0907*75
2021:01:22:10:05:29.828000,1611306329.828,$GPGGA,090529.00,6339.981996,N,01048.319624,E,2,12,0.8,12.52,M,40.30,M,6.0,0907*79
2021:01:22:10:05:30.828000,1611306330.828,$GPGGA,090530.00,6339.983859,N,01048.325058,E,2,12,0.8,12.51,M,40.30,M,7.0,0907*71
2021:01:22:10:05:31.828000,1611306331.828,$GPGGA,090531.00,6339.985748,N,01048.330409,E,2,12,0.8,12.54,M,40.30,M,8.0,0907*77
2021:01:22:10:05:33.828000,1611306333.828,$GPGGA,090533.00,6339.989501,N,01048.341169,E,2,12,0.8,12.51,M,40.30,M,10.0,0907*4F
2021:01:22:10:05:34.829000,1611306334.829,$GPGGA,090534.00,6339.991486,N,01048.346436,E,2,12,0.8,12.49,M,40.30,M,6.0,0907*79
2021:01:22:10:05:35.829000,1611306335.829,$GPGGA,090535.00,6339.993321,N,01048.351741,E,2,12,0.8,12.57,M,40.30,M,7.0,0907*7B
2021:01:22:10:05:36.829000,1611306336.829,$GPGGA,090536.00,6339.995136,N,01048.357155,E,2,12,0.8,12.55,M,40.30,M,8.0,0907*72
2021:01:22:10:05:38.829000,1611306338.829,$GPGGA,090538.00,6339.998932,N,01048.367959,E,2,12,0.8,12.50,M,40.30,M,10.0,0907*46
2021:01:22:10:05:39.829000,1611306339.829,$GPGGA,090539.00,6340.000728,N,01048.373409,E,2,12,0.8,12.54,M,40.30,M,11.0,0907*4C
2021:01:22:10:05:41.828000,1611306341.828,$GPGGA,090541.00,6340.004498,N,01048.384064,E,2,12,0.8,12.52,M,40.30,M,8.0,0907*76
2021:01:22:10:05:42.828000,1611306342.828,$GPGGA,090542.00,6340.006378,N,01048.389433,E,2,12,0.8,12.52,M,40.30,M,9.0,0907*74
2021:01:22:10:05:43.828000,1611306343.828,$GPGGA,090543.00,6340.008242,N,01048.394774,E,2,12,0.8,12.54,M,40.30,M,10.0,0907*41
2021:01:22:10:05:46.828000,1611306346.828,$GPGGA,090546.00,6340.013824,N,01048.410930,E,2,12,0.8,12.50,M,40.30,M,8.0,0907*7C
2021:01:22:10:05:47.828000,1611306347.828,$GPGGA,090547.00,6340.015664,N,01048.416314,E,2,12,0.8,12.52,M,40.30,M,9.0,0907*78
2021:01:22:10:05:48.828000,1611306348.828,$GPGGA,090548.00,6340.017502,N,01048.421729,E,2,12,0.8,12.50,M,40.30,M,10.0,0907*42
2021:01:22:10:05:50.829000,1611306350.829,$GPGGA,090550.00,6340.021216,N,01048.432547,E,2,12,0.8,12.53,M,40.30,M,12.0,0907*45
2021:01:22:10:05:51.829000,1611306351.829,$GPGGA,090551.00,6340.023039,N,01048.437971,E,2,12,0.8,12.53,M,40.30,M,13.0,0907*44
2021:01:22:10:05:52.829000,1611306352.829,$GPGGA,090552.00,6340.024930,N,01048.443361,E,2,12,0.8,12.49,M,40.30,M,14.0,0907*44
2021:01:22:10:05:54.829000,1611306354.829,$GPGGA,090554.00,6340.028819,N,01048.453860,E,2,12,0.8,12.51,M,40.30,M,9.0,0907*7A
2021:01:22:10:05:55.829000,1611306355.829,$GPGGA,090555.00,6340.030707,N,01048.459205,E,2,12,0.8,12.52,M,40.30,M,10.0,0907*4A
2021:01:22:10:05:56.829000,1611306356.829,$GPGGA,090556.00,6340.032657,N,01048.464507,E,2,12,0.8,12.52,M,40.30,M,11.0,0907*45
2021:01:22:10:05:58.829000,1611306358.829,$GPGGA,090558.00,6340.036397,N,01048.475257,E,2,12,0.8,12.48,M,40.30,M,8.0,0907*77
2021:01:22:10:05:59.829000,1611306359.829,$GPGGA,090559.00,6340.038287,N,01048.480569,E,2,12,0.8,12.54,M,40.30,M,9.0,0907*74
2021:01:22:10:06:00.829000,1611306360.829,$GPGGA,090600.00,6340.040196,N,01048.485919,E,2,12,0.8,12.55,M,40.30,M,10.0,0907*40
2021:01:22:10:06:01.829000,1611306361.829,$GPGGA,090601.00,6340.042117,N,01048.491275,E,2,12,0.8,12.50,M,40.29,M,11.0,0907*42
2021:01:22:10:06:02.829000,1611306362.829,$GPGGA,090602.00,6340.043996,N,01048.496666,E,2,12,0.8,12.48,M,40.29,M,7.0,0907*7E
2021:01:22:10:06:03.829000,1611306363.829,$GPGGA,090603.00,6340.045833,N,01048.502029,E,2,12,0.8,12.51,M,40.29,M,8.0,0907*71
2021:01:22:10:06:04.830000,1611306364.83,$GPGGA,090604.00,6340.047711,N,01048.507401,E,2,12,0.8,12.53,M,40.29,M,9.0,0907*73
2021:01:22:10:06:06.830000,1611306366.83,$GPGGA,090606.00,6340.051540,N,01048.518121,E,2,12,0.8,12.47,M,40.29,M,11.0,0907*45
2021:01:22:10:06:07.830000,1611306367.83,$GPGGA,090607.00,6340.053355,N,01048.523554,E,2,12,0.8,12.50,M,40.29,M,12.0,0907*4F
2021:01:22:10:06:08.830000,1611306368.83,$GPGGA,090608.00,6340.055134,N,01048.529023,E,2,12,0.8,12.54,M,40.29,M,7.0,0907*7C
2021:01:22:10:06:11.830000,1611306371.83,$GPGGA,090611.00,6340.060937,N,01048.544957,E,2,12,0.8,12.51,M,40.29,M,5.0,0907*7F
2021:01:22:10:06:12.830000,1611306372.83,$GPGGA,090612.00,6340.062751,N,01048.550378,E,2,12,0.8,12.55,M,40.29,M,6.0,0907*75
2021:01:22:10:06:15.829000,1611306375.829,$GPGGA,090615.00,6340.068332,N,01048.566587,E,2,12,0.8,12.52,M,40.29,M,9.0,0907*72
2021:01:22:10:06:16.829000,1611306376.829,$GPGGA,090616.00,6340.070183,N,01048.571919,E,2,12,0.8,12.53,M,40.29,M,10.0,0907*44
2021:01:22:10:06:17.829000,1611306377.829,$GPGGA,090617.00,6340.072089,N,01048.577199,E,2,12,0.8,12.51,M,40.29,M,11.0,0907*49
2021:01:22:10:06:19.830000,1611306379.83,$GPGGA,090619.00,6340.075917,N,01048.587885,E,2,12,0.8,12.51,M,40.29,M,8.0,0907*7D
2021:01:22:10:06:20.830000,1611306380.83,$GPGGA,090620.00,6340.077740,N,01048.593267,E,2,12,0.8,12.54,M,40.29,M,9.0,0907*7E
2021:01:22:10:06:21.830000,1611306381.83,$GPGGA,090621.00,6340.079590,N,01048.598678,E,2,12,0.8,12.54,M,40.29,M,10.0,0907*47
2021:01:22:10:06:23.830000,1611306383.83,$GPGGA,090623.00,6340.083443,N,01048.609343,E,2,12,0.8,12.53,M,40.29,M,12.0,0907*4C
2021:01:22:10:06:24.830000,1611306384.83,$GPGGA,090624.00,6340.085389,N,01048.614625,E,2,12,0.8,12.52,M,40.29,M,13.0,0907*45
2021:01:22:10:06:25.830000,1611306385.83,$GPGGA,090625.00,6340.087339,N,01048.619847,E,2,12,0.8,12.49,M,40.29,M,14.0,0907*47
2021:01:22:10:06:26.830000,1611306386.83,$GPGGA,090626.00,6340.089224,N,01048.625207,E,2,12,0.8,12.48,M,40.29,M,15.0,0907*46
2021:01:22:10:06:27.830000,1611306387.83,$GPGGA,090627.00,6340.091110,N,01048.630544,E,2,12,0.8,12.49,M,40.29,M,16.0,0907*4C
2021:01:22:10:06:28.830000,1611306388.83,$GPGGA,090628.00,6340.093018,N,01048.635818,E,2,12,0.8,12.49,M,40.29,M,17.0,0907*48
2021:01:22:10:06:29.830000,1611306389.83,$GPGGA,090629.00,6340.094951,N,01048.641103,E,2,12,0.8,12.49,M,40.29,M,7.0,0907*7B
2021:01:22:10:06:31.830000,1611306391.83,$GPGGA,090631.00,6340.098758,N,01048.651760,E,2,12,0.8,12.50,M,40.29,M,9.0,0907*7D
2021:01:22:10:06:32.830000,1611306392.83,$GPGGA,090632.00,6340.100686,N,01048.657028,E,2,12,0.8,12.49,M,40.29,M,10.0,0907*41
2021:01:22:10:06:33.830000,1611306393.83,$GPGGA,090633.00,6340.102579,N,01048.662395,E,2,12,0.8,12.51,M,40.29,M,11.0,0907*4A
2021:01:22:10:06:35.831000,1611306395.831,$GPGGA,090635.00,6340.106427,N,01048.673008,E,2,12,0.8,12.51,M,40.29,M,7.0,0907*72
2021:01:22:10:06:36.831000,1611306396.831,$GPGGA,090636.00,6340.108363,N,01048.678315,E,2,12,0.8,12.50,M,40.29,M,8.0,0907*72
2021:01:22:10:06:37.831000,1611306397.831,$GPGGA,090637.00,6340.110276,N,01048.683661,E,2,12,0.8,12.51,M,40.29,M,9.0,0907*7D
2021:01:22:10:06:38.831000,1611306398.831,$GPGGA,090638.00,6340.112168,N,01048.688984,E,2,12,0.8,12.53,M,40.29,M,10.0,0907*49
2021:01:22:10:06:40.830000,1611306400.83,$GPGGA,090640.00,6340.116012,N,01048.699594,E,2,12,0.8,12.50,M,40.29,M,7.0,0907*76
2021:01:22:10:06:41.830000,1611306401.83,$GPGGA,090641.00,6340.117864,N,01048.705032,E,2,12,0.8,12.52,M,40.29,M,8.0,0907*7F
2021:01:22:10:06:44.830000,1611306404.83,$GPGGA,090644.00,6340.123447,N,01048.721257,E,2,12,0.8,12.51,M,40.29,M,11.0,0907*4C
2021:01:22:10:06:45.830000,1611306405.83,$GPGGA,090645.00,6340.125356,N,01048.726563,E,2,12,0.8,12.54,M,40.29,M,7.0,0907*79
2021:01:22:10:06:46.830000,1611306406.83,$GPGGA,090646.00,6340.127239,N,01048.731941,E,2,12,0.8,12.54,M,40.29,M,8.0,0907*75
2021:01:22:10:06:47.830000,1611306407.83,$GPGGA,090647.00,6340.129144,N,01048.737340,E,2,12,0.8,12.53,M,40.29,M,9.0,0907*78
2021:01:22:10:06:48.830000,1611306408.83,$GPGGA,090648.00,6340.130996,N,01048.742767,E,2,12,0.8,12.56,M,40.29,M,10.0,0907*46
2021:01:22:10:06:49.831000,1611306409.831,$GPGGA,090649.00,6340.132800,N,01048.748271,E,2,12,0.8,12.56,M,40.29,M,11.0,0907*42
2021:01:22:10:06:50.831000,1611306410.831,$GPGGA,090650.00,6340.134648,N,01048.753749,E,2,12,0.8,12.58,M,40.29,M,12.0,0907*47
2021:01:22:10:06:51.831000,1611306411.831,$GPGGA,090651.00,6340.136521,N,01048.759157,E,2,12,0.8,12.55,M,40.29,M,13.0,0907*47
2021:01:22:10:06:52.831000,1611306412.831,$GPGGA,090652.00,6340.138430,N,01048.764493,E,2,12,0.8,12.53,M,40.29,M,9.0,0907*75
2021:01:22:10:06:53.831000,1611306413.831,$GPGGA,090653.00,6340.140339,N,01048.769809,E,2,12,0.8,12.56,M,40.29,M,10.0,0907*4A
2021:01:22:10:06:54.831000,1611306414.831,$GPGGA,090654.00,6340.142249,N,01048.775164,E,2,12,0.8,12.56,M,40.29,M,11.0,0907*47
2021:01:22:10:06:56.831000,1611306416.831,$GPGGA,090656.00,6340.146022,N,01048.785942,E,2,12,0.8,12.54,M,40.29,M,7.0,0907*78
2021:01:22:10:06:57.831000,1611306417.831,$GPGGA,090657.00,6340.147878,N,01048.791392,E,2,12,0.8,12.53,M,40.29,M,8.0,0907*75
2021:01:22:10:06:58.831000,1611306418.831,$GPGGA,090658.00,6340.149760,N,01048.796804,E,2,12,0.8,12.53,M,40.29,M,4.0,0907*7D
2021:01:22:10:07:00.831000,1611306420.831,$GPGGA,090700.00,6340.153657,N,01048.807307,E,2,12,0.8,12.52,M,40.29,M,6.0,0907*73
2021:01:22:10:07:01.831000,1611306421.831,$GPGGA,090701.00,6340.155597,N,01048.812622,E,2,12,0.8,12.52,M,40.29,M,7.0,0907*7C
2021:01:22:10:07:02.831000,1611306422.831,$GPGGA,090702.00,6340.157526,N,01048.817976,E,2,12,0.8,12.53,M,40.29,M,8.0,0907*72
2021:01:22:10:07:04.832000,1611306424.832,$GPGGA,090704.00,6340.161317,N,01048.828698,E,2,12,0.8,12.52,M,40.29,M,10.0,0907*4E
2021:01:22:10:07:05.832000,1611306425.832,$GPGGA,090705.00,6340.163205,N,01048.834073,E,2,12,0.8,12.51,M,40.29,M,11.0,0907*43
2021:01:22:10:07:06.832000,1611306426.832,$GPGGA,090706.00,6340.165108,N,01048.839415,E,2,12,0.8,12.52,M,40.29,M,7.0,0907*75
2021:01:22:10:07:08.832000,1611306428.832,$GPGGA,090708.00,6340.168905,N,01048.850175,E,2,12,0.8,12.53,M,40.28,M,4.0,0907*7C
2021:01:22:10:07:09.832000,1611306429.832,$GPGGA,090709.00,6340.170826,N,01048.855497,E,2,12,0.8,12.54,M,40.28,M,5.0,0907*7E
2021:01:22:10:07:10.831000,1611306430.831,$GPGGA,090710.00,6340.172745,N,01048.860797,E,2,12,0.8,12.55,M,40.28,M,6.0,0907*79
2021:01:22:10:07:11.831000,1611306431.831,$GPGGA,090711.00,6340.174648,N,01048.866195,E,2,12,0.8,12.54,M,40.28,M,7.0,0907*70
2021:01:22:10:07:13.831000,1611306433.831,$GPGGA,090713.00,6340.178405,N,01048.876990,E,2,12,0.8,12.54,M,40.28,M,9.0,0907*77
2021:01:22:10:07:14.831000,1611306434.831,$GPGGA,090714.00,6340.180325,N,01048.882294,E,2,12,0.8,12.56,M,40.28,M,10.0,0907*4C
2021:01:22:10:07:16.831000,1611306436.831,$GPGGA,090716.00,6340.184160,N,01048.893026,E,2,12,0.8,12.52,M,40.28,M,6.0,0907*71
2021:01:22:10:07:17.831000,1611306437.831,$GPGGA,090717.00,6340.186055,N,01048.898368,E,2,12,0.8,12.52,M,40.28,M,7.0,0907*76
2021:01:22:10:07:18.831000,1611306438.831,$GPGGA,090718.00,6340.187924,N,01048.903745,E,2,12,0.8,12.53,M,40.28,M,8.0,0907*71
2021:01:22:10:07:19.832000,1611306439.832,$GPGGA,090719.00,6340.189827,N,01048.909141,E,2,12,0.8,12.54,M,40.28,M,9.0,0907*72
2021:01:22:10:07:21.832000,1611306441.832,$GPGGA,090721.00,6340.193676,N,01048.919867,E,2,12,0.8,12.51,M,40.28,M,11.0,0907*48
2021:01:22:10:07:22.832000,1611306442.832,$GPGGA,090722.00,6340.195572,N,01048.925230,E,2,12,0.8,12.51,M,40.28,M,7.0,0907*7A
2021:01:22:10:07:23.832000,1611306443.832,$GPGGA,090723.00,6340.197466,N,01048.930642,E,2,12,0.8,12.51,M,40.28,M,8.0,0907*77
2021:01:22:10:07:25.832000,1611306445.832,$GPGGA,090725.00,6340.201253,N,01048.941443,E,2,12,0.8,12.51,M,40.28,M,10.0,0907*41
2021:01:22:10:07:26.832000,1611306446.832,$GPGGA,090726.00,6340.203196,N,01048.946783,E,2,12,0.8,12.54,M,40.28,M,6.0,0907*70
2021:01:22:10:07:27.832000,1611306447.832,$GPGGA,090727.00,6340.205123,N,01048.952197,E,2,12,0.8,12.48,M,40.28,M,7.0,0907*73
2021:01:22:10:07:29.832000,1611306449.832,$GPGGA,090729.00,6340.208852,N,01048.963119,E,2,12,0.8,12.53,M,40.28,M,9.0,0907*7F
2021:01:22:10:07:30.832000,1611306450.832,$GPGGA,090730.00,6340.210777,N,01048.968481,E,2,12,0.8,12.50,M,40.28,M,10.0,0907*42
2021:01:22:10:07:31.832000,1611306451.832,$GPGGA,090731.00,6340.212730,N,01048.973839,E,2,12,0.8,12.46,M,40.28,M,11.0,0907*41
2021:01:22:10:07:32.832000,1611306452.832,$GPGGA,090732.00,6340.214652,N,01048.979206,E,2,12,0.8,12.48,M,40.28,M,7.0,0907*74
2021:01:22:10:07:33.832000,1611306453.832,$GPGGA,090733.00,6340.216563,N,01048.984554,E,2,12,0.8,12.50,M,40.28,M,8.0,0907*72
2021:01:22:10:07:34.833000,1611306454.833,$GPGGA,090734.00,6340.218512,N,01048.989865,E,2,12,0.8,12.48,M,40.28,M,9.0,0907*77
2021:01:22:10:07:35.833000,1611306455.833,$GPGGA,090735.00,6340.220466,N,01048.995179,E,2,12,0.8,12.45,M,40.28,M,10.0,0907*43
2021:01:22:10:07:36.833000,1611306456.833,$GPGGA,090736.00,6340.222372,N,01049.000582,E,2,12,0.8,12.44,M,40.28,M,11.0,0907*44
2021:01:22:10:07:37.833000,1611306457.833,$GPGGA,090737.00,6340.224278,N,01049.005944,E,2,12,0.8,12.48,M,40.28,M,12.0,0907*44
2021:01:22:10:07:38.833000,1611306458.833,$GPGGA,090738.00,6340.226214,N,01049.011236,E,2,12,0.8,12.48,M,40.28,M,13.0,0907*49
2021:01:22:10:07:39.832000,1611306459.832,$GPGGA,090739.00,6340.228108,N,01049.016596,E,2,12,0.8,12.48,M,40.28,M,8.0,0907*78
2021:01:22:10:07:41.832000,1611306461.832,$GPGGA,090741.00,6340.231868,N,01049.027344,E,2,12,0.8,12.49,M,40.28,M,10.0,0907*43
2021:01:22:10:07:42.832000,1611306462.832,$GPGGA,090742.00,6340.233795,N,01049.032678,E,2,12,0.8,12.51,M,40.28,M,6.0,0907*7F
2021:01:22:10:07:43.832000,1611306463.832,$GPGGA,090743.00,6340.235741,N,01049.037988,E,2,12,0.8,12.52,M,40.28,M,7.0,0907*76
2021:01:22:10:07:46.832000,1611306466.832,$GPGGA,090746.00,6340.241399,N,01049.054107,E,2,12,0.8,12.51,M,40.28,M,10.0,0907*4E
2021:01:22:10:07:47.832000,1611306467.832,$GPGGA,090747.00,6340.243350,N,01049.059416,E,2,12,0.8,12.50,M,40.28,M,11.0,0907*40
2021:01:22:10:07:50.833000,1611306470.833,$GPGGA,090750.00,6340.249219,N,01049.075231,E,2,12,0.8,12.51,M,40.28,M,9.0,0907*75
2021:01:22:10:07:51.833000,1611306471.833,$GPGGA,090751.00,6340.251160,N,01049.080547,E,2,12,0.8,12.52,M,40.28,M,10.0,0907*47
2021:01:22:10:07:52.833000,1611306472.833,$GPGGA,090752.00,6340.253023,N,01049.085997,E,2,12,0.8,12.53,M,40.28,M,11.0,0907*44
2021:01:22:10:07:54.833000,1611306474.833,$GPGGA,090754.00,6340.256882,N,01049.096628,E,2,12,0.8,12.49,M,40.28,M,13.0,0907*44
2021:01:22:10:07:55.833000,1611306475.833,$GPGGA,090755.00,6340.258836,N,01049.101926,E,2,12,0.8,12.48,M,40.28,M,8.0,0907*71
2021:01:22:10:07:56.833000,1611306476.833,$GPGGA,090756.00,6340.260742,N,01049.107220,E,2,12,0.8,12.53,M,40.28,M,9.0,0907*75
2021:01:22:10:07:58.833000,1611306478.833,$GPGGA,090758.00,6340.264539,N,01049.117920,E,2,12,0.8,12.53,M,40.28,M,11.0,0907*42
2021:01:22:10:07:59.833000,1611306479.833,$GPGGA,090759.00,6340.266462,N,01049.123218,E,2,12,0.8,12.51,M,40.28,M,7.0,0907*7C
2021:01:22:10:08:00.833000,1611306480.833,$GPGGA,090800.00,6340.268392,N,01049.128508,E,2,12,0.8,12.49,M,40.28,M,8.0,0907*72
2021:01:22:10:08:02.833000,1611306482.833,$GPGGA,090802.00,6340.272188,N,01049.139191,E,2,12,0.8,12.52,M,40.28,M,10.0,0907*45
2021:01:22:10:08:03.833000,1611306483.833,$GPGGA,090803.00,6340.274108,N,01049.144498,E,2,12,0.8,12.52,M,40.28,M,11.0,0907*4D
2021:01:22:10:08:04.834000,1611306484.834,$GPGGA,090804.00,6340.276017,N,01049.149829,E,2,12,0.8,12.49,M,40.28,M,12.0,0907*45
2021:01:22:10:08:06.834000,1611306486.834,$GPGGA,090806.00,6340.279828,N,01049.160520,E,2,12,0.8,12.48,M,40.28,M,8.0,0907*79
2021:01:22:10:08:07.834000,1611306487.834,$GPGGA,090807.00,6340.281697,N,01049.165926,E,2,12,0.8,12.48,M,40.28,M,9.0,0907*7B
2021:01:22:10:08:08.834000,1611306488.834,$GPGGA,090808.00,6340.283612,N,01049.171250,E,2,12,0.8,12.48,M,40.28,M,10.0,0907*4C
2021:01:22:10:08:10.833000,1611306490.833,$GPGGA,090810.00,6340.287497,N,01049.181965,E,2,12,0.8,12.46,M,40.28,M,7.0,0907*74
2021:01:22:10:08:11.833000,1611306491.833,$GPGGA,090811.00,6340.289415,N,01049.187300,E,2,12,0.8,12.49,M,40.28,M,8.0,0907*7E
2021:01:22:10:08:12.833000,1611306492.833,$GPGGA,090812.00,6340.291310,N,01049.192694,E,2,12,0.8,12.51,M,40.28,M,4.0,0907*7F
2021:01:22:10:08:15.833000,1611306495.833,$GPGGA,090815.00,6340.297068,N,01049.208836,E,2,12,0.8,12.49,M,40.27,M,7.0,0907*71
2021:01:22:10:08:16.833000,1611306496.833,$GPGGA,090816.00,6340.299047,N,01049.214137,E,2,12,0.8,12.46,M,40.27,M,8.0,0907*74
2021:01:22:10:08:17.833000,1611306497.833,$GPGGA,090817.00,6340.301021,N,01049.219483,E,2,12,0.8,12.46,M,40.27,M,9.0,0907*73
2021:01:22:10:08:19.834000,1611306499.834,$GPGGA,090819.00,6340.304882,N,01049.230163,E,2,12,0.8,12.50,M,40.27,M,6.0,0907*71
2021:01:22:10:08:20.834000,1611306500.834,$GPGGA,090820.00,6340.306820,N,01049.235567,E,2,12,0.8,12.46,M,40.27,M,7.0,0907*72
2021:01:22:10:08:21.834000,1611306501.834,$GPGGA,090821.00,6340.308732,N,01049.240993,E,2,12,0.8,12.48,M,40.27,M,8.0,0907*75
2021:01:22:10:08:23.834000,1611306503.834,$GPGGA,090823.00,6340.312561,N,01049.251649,E,2,12,0.8,12.52,M,40.27,M,10.0,0907*42
2021:01:22:10:08:24.834000,1611306504.834,$GPGGA,090824.00,6340.314538,N,01049.256982,E,2,12,0.8,12.49,M,40.27,M,11.0,0907*4B
2021:01:22:10:08:25.834000,1611306505.834,$GPGGA,090825.00,6340.316442,N,01049.262341,E,2,12,0.8,12.50,M,40.27,M,12.0,0907*4D
2021:01:22:10:08:26.834000,1611306506.834,$GPGGA,090826.00,6340.318365,N,01049.267682,E,2,12,0.8,12.55,M,40.27,M,13.0,0907*49
2021:01:22:10:08:27.834000,1611306507.834,$GPGGA,090827.00,6340.320364,N,01049.272945,E,2,12,0.8,12.55,M,40.27,M,14.0,0907*45
2021:01:22:10:08:28.834000,1611306508.834,$GPGGA,090828.00,6340.322327,N,01049.278208,E,2,12,0.8,12.51,M,40.27,M,15.0,0907*42
2021:01:22:10:08:29.834000,1611306509.834,$GPGGA,090829.00,6340.324274,N,01049.283528,E,2,12,0.8,12.52,M,40.27,M,16.0,0907*43
2021:01:22:10:08:31.834000,1611306511.834,$GPGGA,090831.00,6340.328228,N,01049.294136,E,2,12,0.8,12.54,M,40.27,M,8.0,0907*7B
2021:01:22:10:08:32.834000,1611306512.834,$GPGGA,090832.00,6340.330267,N,01049.299301,E,2,12,0.8,12.50,M,40.27,M,9.0,0907*74
2021:01:22:10:08:33.834000,1611306513.834,$GPGGA,090833.00,6340.332273,N,01049.304511,E,2,12,0.8,12.50,M,40.27,M,10.0,0907*48
2021:01:22:10:08:35.835000,1611306515.835,$GPGGA,090835.00,6340.336194,N,01049.315132,E,2,12,0.8,12.50,M,40.27,M,12.0,0907*47
2021:01:22:10:08:36.835000,1611306516.835,$GPGGA,090836.00,6340.338168,N,01049.320396,E,2,12,0.8,12.50,M,40.27,M,7.0,0907*77
2021:01:22:10:08:37.835000,1611306517.835,$GPGGA,090837.00,6340.340176,N,01049.325641,E,2,12,0.8,12.49,M,40.27,M,8.0,0907*7B
2021:01:22:10:08:39.834000,1611306519.834,$GPGGA,090839.00,6340.344129,N,01049.336178,E,2,12,0.8,12.50,M,40.27,M,10.0,0907*45
2021:01:22:10:08:40.834000,1611306520.834,$GPGGA,090840.00,6340.346052,N,01049.341514,E,2,12,0.8,12.48,M,40.27,M,6.0,0907*74
2021:01:22:10:08:41.834000,1611306521.834,$GPGGA,090841.00,6340.347998,N,01049.346864,E,2,12,0.8,12.47,M,40.27,M,7.0,0907*78
2021:01:22:10:08:43.834000,1611306523.834,$GPGGA,090843.00,6340.351879,N,01049.357571,E,2,12,0.8,12.48,M,40.27,M,9.0,0907*7B
2021:01:22:10:08:44.834000,1611306524.834,$GPGGA,090844.00,6340.353787,N,01049.362921,E,2,12,0.8,12.49,M,40.27,M,10.0,0907*46
2021:01:22:10:08:45.834000,1611306525.834,$GPGGA,090845.00,6340.355663,N,01049.368343,E,2,12,0.8,12.52,M,40.27,M,11.0,0907*45
2021:01:22:10:08:48.834000,1611306528.834,$GPGGA,090848.00,6340.361535,N,01049.384269,E,2,12,0.8,12.50,M,40.27,M,8.0,0907*7E
2021:01:22:10:08:49.835000,1611306529.835,$GPGGA,090849.00,6340.363483,N,01049.389602,E,2,12,0.8,12.52,M,40.27,M,4.0,0907*7B
2021:01:22:10:08:52.835000,1611306532.835,$GPGGA,090852.00,6340.369305,N,01049.405647,E,2,12,0.8,12.50,M,40.27,M,7.0,0907*71
2021:01:22:10:08:53.835000,1611306533.835,$GPGGA,090853.00,6340.371252,N,01049.410986,E,2,12,0.8,12.47,M,40.27,M,8.0,0907*75
2021:01:22:10:08:54.835000,1611306534.835,$GPGGA,090854.00,6340.373201,N,01049.416314,E,2,12,0.8,12.49,M,40.27,M,9.0,0907*7E
2021:01:22:10:08:56.835000,1611306536.835,$GPGGA,090856.00,6340.377128,N,01049.426891,E,2,12,0.8,12.48,M,40.27,M,5.0,0907*78
2021:01:22:10:08:57.835000,1611306537.835,$GPGGA,090857.00,6340.379076,N,01049.432250,E,2,12,0.8,12.48,M,40.27,M,6.0,0907*7C
2021:01:22:10:08:58.835000,1611306538.835,$GPGGA,090858.00,6340.380996,N,01049.437626,E,2,12,0.8,12.48,M,40.27,M,7.0,0907*73
2021:01:22:10:09:00.835000,1611306540.835,$GPGGA,090900.00,6340.384890,N,01049.448302,E,2,12,0.8,12.48,M,40.27,M,9.0,0907*79
2021:01:22:10:09:01.835000,1611306541.835,$GPGGA,090901.00,6340.386807,N,01049.453679,E,2,12,0.8,12.48,M,40.27,M,10.0,0907*4F
2021:01:22:10:09:02.835000,1611306542.835,$GPGGA,090902.00,6340.388739,N,01049.459043,E,2,12,0.8,12.48,M,40.27,M,11.0,0907*44
2021:01:22:10:09:04.836000,1611306544.836,$GPGGA,090904.00,6340.392648,N,01049.469736,E,2,12,0.8,12.47,M,40.27,M,8.0,0907*7F
2021:01:22:10:09:05.836000,1611306545.836,$GPGGA,090905.00,6340.394586,N,01049.475065,E,2,12,0.8,12.49,M,40.27,M,9.0,0907*7A
2021:01:22:10:09:06.836000,1611306546.836,$GPGGA,090906.00,6340.396537,N,01049.480411,E,2,12,0.8,12.48,M,40.27,M,10.0,0907*45
2021:01:22:10:09:08.835000,1611306548.835,$GPGGA,090908.00,6340.400348,N,01049.491307,E,2,12,0.8,12.48,M,40.27,M,7.0,0907*7B
2021:01:22:10:09:09.835000,1611306549.835,$GPGGA,090909.00,6340.402264,N,01049.496699,E,2,12,0.8,12.49,M,40.27,M,8.0,0907*7C
2021:01:22:10:09:10.835000,1611306550.835,$GPGGA,090910.00,6340.404231,N,01049.502024,E,2,12,0.8,12.48,M,40.27,M,9.0,0907*7E
2021:01:22:10:09:11.835000,1611306551.835,$GPGGA,090911.00,6340.406217,N,01049.507361,E,2,12,0.8,12.46,M,40.27,M,10.0,0907*48
2021:01:22:10:09:12.835000,1611306552.835,$GPGGA,090912.00,6340.408162,N,01049.512755,E,2,12,0.8,12.49,M,40.27,M,11.0,0907*4D
2021:01:22:10:09:13.835000,1611306553.835,$GPGGA,090913.00,6340.410059,N,01049.518184,E,2,12,0.8,12.48,M,40.27,M,6.0,0907*7B
2021:01:22:10:09:14.835000,1611306554.835,$GPGGA,090914.00,6340.411944,N,01049.523632,E,2,12,0.8,12.48,M,40.27,M,7.0,0907*7B
2021:01:22:10:09:17.835000,1611306557.835,$GPGGA,090917.00,6340.417687,N,01049.539886,E,2,12,0.8,12.49,M,40.27,M,10.0,0907*43
2021:01:22:10:09:18.835000,1611306558.835,$GPGGA,090918.00,6340.419593,N,01049.545316,E,2,12,0.8,12.48,M,40.27,M,11.0,0907*4D
2021:01:22:10:09:20.836000,1611306560.836,$GPGGA,090920.00,6340.423423,N,01049.556100,E,2,12,0.9,12.48,M,40.26,M,8.0,0907*7A
2021:01:22:10:09:21.836000,1611306561.836,$GPGGA,090921.00,6340.425381,N,01049.561448,E,2,12,0.9,12.48,M,40.26,M,9.0,0907*7E
2021:01:22:10:09:22.836000,1611306562.836,$GPGGA,090922.00,6340.427327,N,01049.566822,E,2,12,0.9,12.46,M,40.26,M,10.0,0907*42
2021:01:22:10:09:23.836000,1611306563.836,$GPGGA,090923.00,6340.429223,N,01049.572246,E,2,12,0.9,12.48,M,40.26,M,6.0,0907*7C
2021:01:22:10:09:25.836000,1611306565.836,$GPGGA,090925.00,6340.433106,N,01049.582941,E,2,12,0.8,12.50,M,40.26,M,8.0,0907*70
2021:01:22:10:09:26.836000,1611306566.836,$GPGGA,090926.00,6340.435069,N,01049.588246,E,2,12,0.8,12.47,M,40.26,M,4.0,0907*71
2021:01:22:10:09:27.836000,1611306567.836,$GPGGA,090927.00,6340.437016,N,01049.593559,E,2,12,0.8,12.45,M,40.26,M,5.0,0907*7A
2021:01:22:10:09:29.836000,1611306569.836,$GPGGA,090929.00,6340.440865,N,01049.604272,E,2,12,0.8,12.47,M,40.26,M,7.0,0907*7B
2021:01:22:10:09:30.836000,1611306570.836,$GPGGA,090930.00,6340.442828,N,01049.609555,E,2,12,0.8,12.48,M,40.26,M,8.0,0907*77
2021:01:22:10:09:31.836000,1611306571.836,$GPGGA,090931.00,6340.444837,N,01049.614800,E,2,12,0.8,12.46,M,40.26,M,9.0,0907*70
2021:01:22:10:09:33.836000,1611306573.836,$GPGGA,090933.00,6340.448714,N,01049.625544,E,2,12,0.8,12.50,M,40.26,M,6.0,0907*77
2021:01:22:10:09:34.837000,1611306574.837,$GPGGA,090934.00,6340.450643,N,01049.630895,E,2,12,0.8,12.52,M,40.26,M,7.0,0907*7C
2021:01:22:10:09:35.837000,1611306575.837,$GPGGA,090935.00,6340.452600,N,01049.636251,E,2,12,0.8,12.49,M,40.26,M,8.0,0907*79
2021:01:22:10:09:37.836000,1611306577.836,$GPGGA,090937.00,6340.456542,N,01049.646892,E,2,12,0.8,12.47,M,40.26,M,5.0,0907*7B
2021:01:22:10:09:38.836000,1611306578.836,$GPGGA,090938.00,6340.458467,N,01049.652304,E,2,12,0.8,12.46,M,40.26,M,6.0,0907*7F
2021:01:22:10:09:39.836000,1611306579.836,$GPGGA,090939.00,6340.460421,N,01049.657653,E,2,12,0.8,12.46,M,40.26,M,7.0,0907*74
2021:01:22:10:09:41.836000,1611306581.836,$GPGGA,090941.00,6340.464251,N,01049.668406,E,2,12,0.8,12.46,M,40.26,M,9.0,0907*7E
2021:01:22:10:09:42.836000,1611306582.836,$GPGGA,090942.00,6340.466184,N,01049.673808,E,2,12,0.8,12.43,M,40.26,M,10.0,0907*41
2021:01:22:10:09:43.836000,1611306583.836,$GPGGA,090943.00,6340.468081,N,01049.679253,E,2,12,0.8,12.44,M,40.26,M,6.0,0907*74
2021:01:22:10:09:45.836000,1611306585.836,$GPGGA,090945.00,6340.471870,N,01049.690131,E,2,12,0.8,12.44,M,40.26,M,8.0,0907*72
2021:01:22:10:09:46.836000,1611306586.836,$GPGGA,090946.00,6340.473789,N,01049.695525,E,2,12,0.8,12.44,M,40.26,M,9.0,0907*7F
2021:01:22:10:09:47.836000,1611306587.836,$GPGGA,090947.00,6340.475688,N,01049.700924,E,2,12,0.8,12.44,M,40.26,M,10.0,0907*40
2021:01:22:10:09:50.837000,1611306590.837,$GPGGA,090950.00,6340.481420,N,01049.717210,E,2,12,0.8,12.42,M,40.26,M,13.0,0907*42
2021:01:22:10:09:51.837000,1611306591.837,$GPGGA,090951.00,6340.483358,N,01049.722543,E,2,12,0.8,12.42,M,40.26,M,14.0,0907*49
2021:01:22:10:09:54.837000,1611306594.837,$GPGGA,090954.00,6340.489198,N,01049.738589,E,2,12,0.8,12.39,M,40.26,M,11.0,0907*4C
2021:01:22:10:09:55.837000,1611306595.837,$GPGGA,090955.00,6340.491077,N,01049.744048,E,2,12,0.8,12.39,M,40.26,M,12.0,0907*44
2021:01:22:10:09:56.837000,1611306596.837,$GPGGA,090956.00,6340.492971,N,01049.749473,E,2,12,0.8,12.42,M,40.26,M,8.0,0907*7D
2021:01:22:10:09:58.837000,1611306598.837,$GPGGA,090958.00,6340.496839,N,01049.760121,E,2,12,0.8,12.40,M,40.26,M,10.0,0907*48
2021:01:22:10:09:59.837000,1611306599.837,$GPGGA,090959.00,6340.498794,N,01049.765432,E,2,12,0.8,12.38,M,40.26,M,11.0,0907*43
2021:01:22:10:10:00.837000,1611306600.837,$GPGGA,091000.00,6340.500751,N,01049.770741,E,2,12,0.8,12.43,M,40.26,M,7.0,0907*76
2021:01:22:10:10:02.837000,1611306602.837,$GPGGA,091002.00,6340.504573,N,01049.781484,E,2,12,0.8,12.44,M,40.26,M,9.0,0907*7F
2021:01:22:10:10:03.837000,1611306603.837,$GPGGA,091003.00,6340.506496,N,01049.786841,E,2,12,0.8,12.43,M,40.26,M,10.0,0907*4B
2021:01:22:10:10:04.838000,1611306604.838,$GPGGA,091004.00,6340.508433,N,01049.792159,E,2,12,0.8,12.42,M,40.26,M,6.0,0907*7E
2021:01:22:10:10:05.838000,1611306605.838,$GPGGA,091005.00,6340.510352,N,01049.797511,E,2,12,0.8,12.44,M,40.26,M,7.0,0907*7C
2021:01:22:10:10:06.837000,1611306606.837,$GPGGA,091006.00,6340.512256,N,01049.802905,E,2,12,0.8,12.45,M,40.26,M,8.0,0907*7C
2021:01:22:10:10:07.837000,1611306607.837,$GPGGA,091007.00,6340.514168,N,01049.808299,E,2,12,0.8,12.42,M,40.26,M,9.0,0907*77
2021:01:22:10:10:08.837000,1611306608.837,$GPGGA,091008.00,6340.516082,N,01049.813683,E,2,12,0.8,12.42,M,40.26,M,10.0,0907*42
2021:01:22:10:10:10.837000,1611306610.837,$GPGGA,091010.00,6340.520016,N,01049.824334,E,2,12,0.8,12.44,M,40.26,M,7.0,0907*7E
2021:01:22:10:10:11.837000,1611306611.837,$GPGGA,091011.00,6340.521924,N,01049.829747,E,2,12,0.8,12.40,M,40.26,M,8.0,0907*70
2021:01:22:10:10:12.837000,1611306612.837,$GPGGA,091012.00,6340.523757,N,01049.835271,E,2,12,0.8,12.40,M,40.26,M,9.0,0907*77
2021:01:22:10:10:14.837000,1611306614.837,$GPGGA,091014.00,6340.527496,N,01049.846162,E,2,12,0.8,12.45,M,40.26,M,5.0,0907*77
2021:01:22:10:10:15.837000,1611306615.837,$GPGGA,091015.00,6340.529426,N,01049.851574,E,2,12,0.8,12.43,M,40.26,M,6.0,0907*73
2021:01:22:10:10:16.837000,1611306616.837,$GPGGA,091016.00,6340.531318,N,01049.857061,E,2,12,0.8,12.42,M,40.26,M,7.0,0907*74
2021:01:22:10:10:19.838000,1611306619.838,$GPGGA,091019.00,6340.536997,N,01049.873286,E,2,12,0.8,12.45,M,40.26,M,10.0,0907*4D
2021:01:22:10:10:20.838000,1611306620.838,$GPGGA,091020.00,6340.538900,N,01049.878786,E,2,12,0.8,12.43,M,40.26,M,11.0,0907*4E
2021:01:22:10:10:23.838000,1611306623.838,$GPGGA,091023.00,6340.544519,N,01049.895184,E,2,12,0.8,12.48,M,40.26,M,9.0,0907*77
2021:01:22:10:10:24.838000,1611306624.838,$GPGGA,091024.00,6340.546382,N,01049.900653,E,2,12,0.9,12.47,M,40.26,M,10.0,0907*40
2021:01:22:10:10:25.838000,1611306625.838,$GPGGA,091025.00,6340.548269,N,01049.906087,E,2,12,0.9,12.45,M,40.26,M,11.0,0907*41
2021:01:22:10:10:27.838000,1611306627.838,$GPGGA,091027.00,6340.552061,N,01049.916954,E,2,12,0.8,12.44,M,40.25,M,7.0,0907*70
2021:01:22:10:10:28.838000,1611306628.838,$GPGGA,091028.00,6340.553920,N,01049.922417,E,2,12,0.8,12.46,M,40.25,M,8.0,0907*72
2021:01:22:10:10:29.838000,1611306629.838,$GPGGA,091029.00,6340.555809,N,01049.927852,E,2,12,0.8,12.46,M,40.25,M,9.0,0907*76
2021:01:22:10:10:31.838000,1611306631.838,$GPGGA,091031.00,6340.559630,N,01049.938667,E,2,12,0.8,12.43,M,40.25,M,5.0,0907*78
2021:01:22:10:10:32.838000,1611306632.838,$GPGGA,091032.00,6340.561511,N,01049.944130,E,2,12,0.8,12.45,M,40.25,M,6.0,0907*7B
2021:01:22:10:10:33.838000,1611306633.838,$GPGGA,091033.00,6340.563397,N,01049.949561,E,2,12,0.8,12.48,M,40.25,M,7.0,0907*71
2021:01:22:10:10:35.839000,1611306635.839,$GPGGA,091035.00,6340.567245,N,01049.960294,E,2,12,0.8,12.46,M,40.25,M,9.0,0907*7B
2021:01:22:10:10:36.839000,1611306636.839,$GPGGA,091036.00,6340.569156,N,01049.965670,E,2,12,0.8,12.46,M,40.25,M,10.0,0907*44
2021:01:22:10:10:37.838000,1611306637.838,$GPGGA,091037.00,6340.571046,N,01049.971039,E,2,12,0.8,12.46,M,40.25,M,6.0,0907*75
2021:01:22:10:10:39.838000,1611306639.838,$GPGGA,091039.00,6340.574863,N,01049.981800,E,2,12,0.8,12.45,M,40.25,M,8.0,0907*71
2021:01:22:10:10:40.838000,1611306640.838,$GPGGA,091040.00,6340.576753,N,01049.987200,E,2,12,0.8,12.45,M,40.25,M,9.0,0907*7C
2021:01:22:10:10:41.838000,1611306641.838,$GPGGA,091041.00,6340.578630,N,01049.992586,E,2,12,0.8,12.45,M,40.25,M,5.0,0907*76
2021:01:22:10:10:43.838000,1611306643.838,$GPGGA,091043.00,6340.582463,N,01050.003329,E,2,12,0.8,12.46,M,40.25,M,7.0,0907*7E
2021:01:22:10:10:44.838000,1611306644.838,$GPGGA,091044.00,6340.584382,N,01050.008719,E,2,12,0.8,12.47,M,40.25,M,8.0,0907*75
2021:01:22:10:10:45.838000,1611306645.838,$GPGGA,091045.00,6340.586299,N,01050.014091,E,2,12,0.8,12.48,M,40.25,M,9.0,0907*79
2021:01:22:10:10:47.838000,1611306647.838,$GPGGA,091047.00,6340.590095,N,01050.024853,E,2,12,0.8,12.49,M,40.25,M,6.0,0907*79
2021:01:22:10:10:48.838000,1611306648.838,$GPGGA,091048.00,6340.592025,N,01050.030194,E,2,12,0.8,12.46,M,40.25,M,7.0,0907*76
2021:01:22:10:10:49.839000,1611306649.839,$GPGGA,091049.00,6340.593973,N,01050.035514,E,2,12,0.8,12.42,M,40.25,M,8.0,0907*7E
2021:01:22:10:10:50.839000,1611306650.839,$GPGGA,091050.00,6340.595931,N,01050.040862,E,2,12,0.8,12.45,M,40.25,M,9.0,0907*7E
2021:01:22:10:10:52.839000,1611306652.839,$GPGGA,091052.00,6340.599758,N,01050.051494,E,2,12,0.8,12.48,M,40.25,M,11.0,0907*40
2021:01:22:10:10:53.839000,1611306653.839,$GPGGA,091053.00,6340.601684,N,01050.056827,E,2,12,0.8,12.45,M,40.25,M,12.0,0907*4E
2021:01:22:10:10:56.839000,1611306656.839,$GPGGA,091056.00,6340.607439,N,01050.072965,E,2,12,0.8,12.47,M,40.25,M,10.0,0907*48
2021:01:22:10:10:57.839000,1611306657.839,$GPGGA,091057.00,6340.609373,N,01050.078262,E,2,12,0.8,12.47,M,40.25,M,5.0,0907*7C
2021:01:22:10:10:58.839000,1611306658.839,$GPGGA,091058.00,6340.611353,N,01050.083589,E,2,12,0.8,12.42,M,40.25,M,6.0,0907*78
2021:01:22:10:10:59.839000,1611306659.839,$GPGGA,091059.00,6340.613293,N,01050.088975,E,2,12,0.8,12.41,M,40.25,M,7.0,0907*70
2021:01:22:10:11:00.839000,1611306660.839,$GPGGA,091100.00,6340.615176,N,01050.094360,E,2,12,0.8,12.48,M,40.25,M,8.0,0907*76
2021:01:22:10:11:01.839000,1611306661.839,$GPGGA,091101.00,6340.617121,N,01050.099616,E,2,12,0.8,12.47,M,40.25,M,9.0,0907*70
2021:01:22:10:11:02.839000,1611306662.839,$GPGGA,091102.00,6340.619114,N,01050.104856,E,2,12,0.8,12.42,M,40.25,M,10.0,0907*49
2021:01:22:10:11:04.839000,1611306664.839,$GPGGA,091104.00,6340.622937,N,01050.115600,E,2,12,0.8,12.46,M,40.25,M,7.0,0907*71
2021:01:22:10:11:05.839000,1611306665.839,$GPGGA,091105.00,6340.624859,N,01050.120882,E,2,12,0.8,12.47,M,40.25,M,8.0,0907*73
2021:01:22:10:11:06.839000,1611306666.839,$GPGGA,091106.00,6340.626798,N,01050.126181,E,2,12,0.8,12.44,M,40.25,M,9.0,0907*7E
2021:01:22:10:11:08.839000,1611306668.839,$GPGGA,091108.00,6340.630624,N,01050.136860,E,2,12,0.8,12.44,M,40.25,M,6.0,0907*79
2021:01:22:10:11:09.840000,1611306669.84,$GPGGA,091109.00,6340.632535,N,01050.142170,E,2,12,0.8,12.48,M,40.25,M,7.0,0907*7F
2021:01:22:10:11:10.839000,1611306670.839,$GPGGA,091110.00,6340.634416,N,01050.147527,E,2,12,0.8,12.47,M,40.25,M,8.0,0907*72
2021:01:22:10:11:12.839000,1611306672.839,$GPGGA,091112.00,6340.638160,N,01050.158410,E,2,12,0.8,12.44,M,40.25,M,10.0,0907*49
2021:01:22:10:11:13.839000,1611306673.839,$GPGGA,091113.00,6340.640067,N,01050.163700,E,2,12,0.8,12.47,M,40.25,M,11.0,0907*49
2021:01:22:10:11:14.839000,1611306674.839,$GPGGA,091114.00,6340.641975,N,01050.168943,E,2,12,0.8,12.48,M,40.25,M,6.0,0907*7E
2021:01:22:10:11:16.839000,1611306676.839,$GPGGA,091116.00,6340.645792,N,01050.179666,E,2,12,0.8,12.45,M,40.25,M,8.0,0907*74
2021:01:22:10:11:17.839000,1611306677.839,$GPGGA,091117.00,6340.647664,N,01050.185062,E,2,12,0.8,12.46,M,40.25,M,9.0,0907*7C
2021:01:22:10:11:18.839000,1611306678.839,$GPGGA,091118.00,6340.649563,N,01050.190360,E,2,12,0.8,12.49,M,40.25,M,10.0,0907*4B
2021:01:22:10:11:21.840000,1611306681.84,$GPGGA,091121.00,6340.655350,N,01050.206271,E,2,12,0.8,12.45,M,40.25,M,8.0,0907*72
2021:01:22:10:11:22.840000,1611306682.84,$GPGGA,091122.00,6340.657228,N,01050.211641,E,2,12,0.8,12.47,M,40.25,M,9.0,0907*7F
2021:01:22:10:11:25.840000,1611306685.84,$GPGGA,091125.00,6340.663011,N,01050.227583,E,2,12,0.8,12.44,M,40.25,M,7.0,0907*72
2021:01:22:10:11:26.840000,1611306686.84,$GPGGA,091126.00,6340.664925,N,01050.232928,E,2,12,0.8,12.46,M,40.25,M,8.0,0907*7C
2021:01:22:10:11:27.840000,1611306687.84,$GPGGA,091127.00,6340.666844,N,01050.238237,E,2,12,0.8,12.47,M,40.25,M,4.0,0907*7B
2021:01:22:10:11:29.840000,1611306689.84,$GPGGA,091129.00,6340.670691,N,01050.248871,E,2,12,0.8,12.43,M,40.25,M,6.0,0907*7D
2021:01:22:10:11:30.840000,1611306690.84,$GPGGA,091130.00,6340.672611,N,01050.254225,E,2,12,0.8,12.44,M,40.25,M,7.0,0907*7F
2021:01:22:10:11:31.840000,1611306691.84,$GPGGA,091131.00,6340.674543,N,01050.259530,E,2,12,0.8,12.46,M,40.25,M,8.0,0907*7F
2021:01:22:10:11:33.840000,1611306693.84,$GPGGA,091133.00,6340.678417,N,01050.270183,E,2,12,0.8,12.47,M,40.24,M,10.0,0907*4F
2021:01:22:10:11:34.841000,1611306694.841,$GPGGA,091134.00,6340.680353,N,01050.275519,E,2,12,0.8,12.46,M,40.24,M,11.0,0907*4A
2021:01:22:10:11:35.840000,1611306695.84,$GPGGA,091135.00,6340.682282,N,01050.280831,E,2,12,0.8,12.44,M,40.24,M,12.0,0907*48
2021:01:22:10:11:37.840000,1611306697.84,$GPGGA,091137.00,6340.686165,N,01050.291436,E,2,12,0.8,12.43,M,40.24,M,9.0,0907*72
2021:01:22:10:11:38.840000,1611306698.84,$GPGGA,091138.00,6340.688067,N,01050.296801,E,2,12,0.8,12.42,M,40.24,M,10.0,0907*46
2021:01:22:10:11:39.840000,1611306699.84,$GPGGA,091139.00,6340.689963,N,01050.302178,E,2,12,0.8,12.43,M,40.24,M,11.0,0907*40
2021:01:22:10:11:41.840000,1611306701.84,$GPGGA,091141.00,6340.693779,N,01050.312870,E,2,12,0.8,12.45,M,40.24,M,7.0,0907*70
2021:01:22:10:11:42.840000,1611306702.84,$GPGGA,091142.00,6340.695683,N,01050.318230,E,2,12,0.8,12.45,M,40.24,M,8.0,0907*7A
2021:01:22:10:11:43.840000,1611306703.84,$GPGGA,091143.00,6340.697566,N,01050.323633,E,2,12,0.8,12.45,M,40.24,M,4.0,0907*72
2021:01:22:10:11:44.840000,1611306704.84,$GPGGA,091144.00,6340.699440,N,01050.329052,E,2,12,0.8,12.45,M,40.24,M,5.0,0907*74
2021:01:22:10:11:45.840000,1611306705.84,$GPGGA,091145.00,6340.701289,N,01050.334483,E,2,12,0.8,12.45,M,40.24,M,6.0,0907*71
2021:01:22:10:11:46.840000,1611306706.84,$GPGGA,091146.00,6340.703150,N,01050.339924,E,2,12,0.8,12.45,M,40.24,M,7.0,0907*7B
2021:01:22:10:11:47.840000,1611306707.84,$GPGGA,091147.00,6340.705013,N,01050.345321,E,2,12,0.8,12.49,M,40.24,M,8.0,0907*7D
2021:01:22:10:11:49.841000,1611306709.841,$GPGGA,091149.00,6340.708839,N,01050.356022,E,2,12,0.8,12.44,M,40.24,M,10.0,0907*48
2021:01:22:10:11:50.841000,1611306710.841,$GPGGA,091150.00,6340.710715,N,01050.361396,E,2,12,0.8,12.42,M,40.24,M,11.0,0907*47
2021:01:22:10:11:51.841000,1611306711.841,$GPGGA,091151.00,6340.712571,N,01050.366779,E,2,12,0.8,12.43,M,40.24,M,6.0,0907*71
2021:01:22:10:11:53.841000,1611306713.841,$GPGGA,091153.00,6340.716358,N,01050.377433,E,2,12,0.8,12.41,M,40.24,M,8.0,0907*7B
2021:01:22:10:11:54.841000,1611306714.841,$GPGGA,091154.00,6340.718267,N,01050.382757,E,2,12,0.8,12.40,M,40.24,M,9.0,0907*74
2021:01:22:10:11:55.841000,1611306715.841,$GPGGA,091155.00,6340.720158,N,01050.388118,E,2,12,0.8,12.40,M,40.24,M,10.0,0907*4E
2021:01:22:10:11:58.841000,1611306718.841,$GPGGA,091158.00,6340.725903,N,01050.404056,E,2,12,0.8,12.41,M,40.24,M,7.0,0907*7F
2021:01:22:10:11:59.841000,1611306719.841,$GPGGA,091159.00,6340.727812,N,01050.409375,E,2,12,0.8,12.43,M,40.24,M,8.0,0907*7F
2021:01:22:10:12:00.841000,1611306720.841,$GPGGA,091200.00,6340.729706,N,01050.414711,E,2,12,0.8,12.44,M,40.24,M,9.0,0907*78
2021:01:22:10:12:02.841000,1611306722.841,$GPGGA,091202.00,6340.733466,N,01050.425492,E,2,12,0.8,12.41,M,40.24,M,6.0,0907*74
2021:01:22:10:12:03.841000,1611306723.841,$GPGGA,091203.00,6340.735351,N,01050.430885,E,2,12,0.8,12.42,M,40.24,M,7.0,0907*7C
2021:01:22:10:12:04.842000,1611306724.842,$GPGGA,091204.00,6340.737251,N,01050.436176,E,2,12,0.8,12.46,M,40.24,M,8.0,0907*70
2021:01:22:10:12:06.841000,1611306726.841,$GPGGA,091206.00,6340.741023,N,01050.446878,E,2,12,0.8,12.44,M,40.24,M,10.0,0907*4F
2021:01:22:10:12:07.841000,1611306727.841,$GPGGA,091207.00,6340.742893,N,01050.452241,E,2,12,0.8,12.44,M,40.24,M,11.0,0907*4A
2021:01:22:10:12:08.841000,1611306728.841,$GPGGA,091208.00,6340.744768,N,01050.457577,E,2,12,0.8,12.46,M,40.24,M,12.0,0907*4E
2021:01:22:10:12:10.841000,1611306730.841,$GPGGA,091210.00,6340.748562,N,01050.468183,E,2,12,0.8,12.47,M,40.24,M,14.0,0907*47
2021:01:22:10:12:11.841000,1611306731.841,$GPGGA,091211.00,6340.750435,N,01050.473542,E,2,12,0.8,12.47,M,40.24,M,9.0,0907*73
2021:01:22:10:12:12.841000,1611306732.841,$GPGGA,091212.00,6340.752275,N,01050.478930,E,2,12,0.8,12.49,M,40.24,M,10.0,0907*44
2021:01:22:10:12:13.841000,1611306733.841,$GPGGA,091213.00,6340.754109,N,01050.484343,E,2,12,0.8,12.47,M,40.24,M,11.0,0907*49
2021:01:22:10:12:14.841000,1611306734.841,$GPGGA,091214.00,6340.755954,N,01050.489758,E,2,12,0.8,12.45,M,40.24,M,7.0,0907*79
2021:01:22:10:12:15.841000,1611306735.841,$GPGGA,091215.00,6340.757770,N,01050.495221,E,2,12,0.8,12.47,M,40.24,M,8.0,0907*79
2021:01:22:10:12:16.841000,1611306736.841,$GPGGA,091216.00,6340.759584,N,01050.500656,E,2,12,0.8,12.46,M,40.24,M,9.0,0907*74
2021:01:22:10:12:18.841000,1611306738.841,$GPGGA,091218.00,6340.763184,N,01050.511569,E,2,12,0.8,12.46,M,40.24,M,11.0,0907*41
2021:01:22:10:12:19.842000,1611306739.842,$GPGGA,091219.00,6340.764965,N,01050.517069,E,2,12,0.8,12.46,M,40.24,M,12.0,0907*40
2021:01:22:10:12:20.842000,1611306740.842,$GPGGA,091220.00,6340.766728,N,01050.522587,E,2,12,0.8,12.44,M,40.24,M,13.0,0907*4F
2021:01:22:10:12:23.842000,1611306743.842,$GPGGA,091223.00,6340.771821,N,01050.539418,E,2,12,0.8,12.45,M,40.24,M,10.0,0907*43
2021:01:22:10:12:24.842000,1611306744.842,$GPGGA,091224.00,6340.773486,N,01050.545096,E,2,12,0.8,12.49,M,40.24,M,11.0,0907*43
2021:01:22:10:12:27.842000,1611306747.842,$GPGGA,091227.00,6340.778431,N,01050.562206,E,2,12,0.8,12.45,M,40.24,M,14.0,0907*40
2021:01:22:10:12:28.842000,1611306748.842,$GPGGA,091228.00,6340.780052,N,01050.567919,E,2,12,0.8,12.47,M,40.24,M,9.0,0907*77
2021:01:22:10:12:29.842000,1611306749.842,$GPGGA,091229.00,6340.781667,N,01050.573652,E,2,12,0.8,12.48,M,40.24,M,10.0,0907*45
2021:01:22:10:12:31.842000,1611306751.842,$GPGGA,091231.00,6340.784860,N,01050.585134,E,2,12,0.8,12.48,M,40.24,M,12.0,0907*4C
2021:01:22:10:12:32.842000,1611306752.842,$GPGGA,091232.00,6340.786474,N,01050.590849,E,2,12,0.8,12.46,M,40.24,M,8.0,0907*76
2021:01:22:10:12:33.841000,1611306753.841,$GPGGA,091233.00,6340.788060,N,01050.596606,E,2,12,0.8,12.44,M,40.24,M,9.0,0907*78
2021:01:22:10:12:35.842000,1611306755.842,$GPGGA,091235.00,6340.791193,N,01050.608104,E,2,12,0.8,12.45,M,40.24,M,6.0,0907*74
2021:01:22:10:12:36.842000,1611306756.842,$GPGGA,091236.00,6340.792828,N,01050.613781,E,2,12,0.8,12.47,M,40.24,M,7.0,0907*7F
2021:01:22:10:12:37.842000,1611306757.842,$GPGGA,091237.00,6340.794461,N,01050.619492,E,2,12,0.8,12.45,M,40.23,M,8.0,0907*78
2021:01:22:10:12:38.842000,1611306758.842,$GPGGA,091238.00,6340.796064,N,01050.625255,E,2,12,0.8,12.45,M,40.23,M,9.0,0907*77
2021:01:22:10:12:39.842000,1611306759.842,$GPGGA,091239.00,6340.797620,N,01050.631045,E,2,12,0.8,12.48,M,40.23,M,10.0,0907*42
2021:01:22:10:12:40.842000,1611306760.842,$GPGGA,091240.00,6340.799200,N,01050.636811,E,2,12,0.8,12.47,M,40.23,M,11.0,0907*44
2021:01:22:10:12:41.842000,1611306761.842,$GPGGA,091241.00,6340.800779,N,01050.642572,E,2,12,0.8,12.46,M,40.23,M,7.0,0907*7C
2021:01:22:10:12:42.842000,1611306762.842,$GPGGA,091242.00,6340.802356,N,01050.648332,E,2,12,0.8,12.46,M,40.23,M,8.0,0907*73
2021:01:22:10:12:43.842000,1611306763.842,$GPGGA,091243.00,6340.803920,N,01050.654088,E,2,12,0.8,12.48,M,40.23,M,9.0,0907*78
2021:01:22:10:12:44.842000,1611306764.842,$GPGGA,091244.00,6340.805473,N,01050.659876,E,2,12,0.8,12.45,M,40.23,M,4.0,0907*76
